{"xgyro": 0, "zmag": 334, "ygyro": 2, "xmag": 148, "zacc": -991, "xacc": -36, "yacc": -112, "zgyro": -1, "mavpackettype": "RAW_IMU", "ymag": -48, "time_usec": 59181098}	0.000000	2015-05-25T18:06:48.560243
{"mavpackettype": "SCALED_PRESSURE", "press_diff": 0.015468749217689037, "time_boot_ms": 59181, "temperature": 4212, "press_abs": 927.111328125}	0.000000	2015-05-25T18:06:48.560243
{"mavpackettype": "MISSION_CURRENT", "seq": 0}	0.000000	2015-05-25T18:06:48.568143
{"fix_type": 3, "cog": 29234, "epv": 65535, "lon": -1109414560, "time_usec": 59140000, "eph": 121, "satellites_visible": 7, "lat": 322351410, "mavpackettype": "GPS_RAW_INT", "alt": 746130, "vel": 0}	0.000000	2015-05-25T18:06:48.601112
{"wp_dist": 2, "nav_pitch": -24.56999969482422, "target_bearing": -169, "nav_roll": -22.78999900817871, "aspd_error": 0.0, "alt_error": 100.11000061035156, "mavpackettype": "NAV_CONTROLLER_OUTPUT", "xtrack_error": -65.2966537475586, "nav_bearing": -169}	0.000000	2015-05-25T18:06:48.605305
{"throttle": 0, "groundspeed": 0.0, "airspeed": 0.0, "climb": -0.19731438159942627, "mavpackettype": "VFR_HUD", "alt": 746.3699951171875, "heading": 43}	0.000000	2015-05-25T18:06:48.605305
{"pitchspeed": 0.00039824354462325573, "yaw": 0.7520173192024231, "rollspeed": 0.0001245866878889501, "time_boot_ms": 59261, "pitch": -0.03789062052965164, "mavpackettype": "ATTITUDE", "yawspeed": 0.0022645918652415276, "roll": 0.18560712039470673}	0.000000	2015-05-25T18:06:48.637810
{"vx": 0, "lon": -1109414560, "time_boot_ms": 59140, "hdg": 4308, "relative_alt": -149, "vy": 0, "lat": 322351410, "mavpackettype": "GLOBAL_POSITION_INT", "alt": 746130, "vz": 0}	0.000000	2015-05-25T18:06:48.678768
{"throttle": 0, "groundspeed": 0.0, "airspeed": 0.0, "climb": 0.22534702718257904, "mavpackettype": "VFR_HUD", "alt": 746.4299926757812, "heading": 43}	0.000000	2015-05-25T18:06:48.723616
{"pitchspeed": 0.0009303528349846601, "yaw": 0.7520295977592468, "rollspeed": -0.0001414679572917521, "time_boot_ms": 59381, "pitch": -0.03791999816894531, "mavpackettype": "ATTITUDE", "yawspeed": 0.0009343178244307637, "roll": 0.18555890023708344}	0.000000	2015-05-25T18:06:48.760317
{"throttle": 0, "groundspeed": 0.0, "airspeed": 0.0, "climb": 0.24851469695568085, "mavpackettype": "VFR_HUD", "alt": 746.4099731445312, "heading": 43}	0.000000	2015-05-25T18:06:48.838150
{"pitchspeed": -0.00039992225356400013, "yaw": 0.7520371079444885, "rollspeed": 0.0019869711250066757, "time_boot_ms": 59501, "pitch": -0.03791992366313934, "mavpackettype": "ATTITUDE", "yawspeed": 0.001732482691295445, "roll": 0.18551099300384521}	0.000000	2015-05-25T18:06:48.879116
{"servo4_raw": 1381, "servo2_raw": 1344, "servo6_raw": 1500, "time_usec": 59546504, "servo1_raw": 1258, "servo8_raw": 1500, "servo5_raw": 1555, "mavpackettype": "SERVO_OUTPUT_RAW", "servo3_raw": 952, "port": 0, "servo7_raw": 1500}	0.000000	2015-05-25T18:06:48.924256
{"chan4_raw": 900, "chan2_raw": 900, "chan6_raw": 900, "time_boot_ms": 59546, "chan1_raw": 900, "chan5_raw": 900, "chan3_raw": 900, "chan7_raw": 900, "mavpackettype": "RC_CHANNELS_RAW", "chan8_raw": 900, "port": 0, "rssi": 0}	0.000000	2015-05-25T18:06:48.927966
{"throttle": 0, "groundspeed": 0.0, "airspeed": 0.0, "climb": 0.06910234689712524, "mavpackettype": "VFR_HUD", "alt": 746.3800048828125, "heading": 43}	0.000000	2015-05-25T18:06:48.956766
{"pitchspeed": 0.0025266807060688734, "yaw": 0.7519013285636902, "rollspeed": -0.0001414679572917521, "time_boot_ms": 59623, "pitch": -0.0378563217818737, "mavpackettype": "ATTITUDE", "yawspeed": 0.0009343178244307637, "roll": 0.18549996614456177}	0.000000	2015-05-25T18:06:49.001626
{"vx": 0, "lon": -1109414560, "time_boot_ms": 59541, "hdg": 4308, "relative_alt": -149, "vy": 0, "lat": 322351430, "mavpackettype": "GLOBAL_POSITION_INT", "alt": 746130, "vz": 0}	0.000000	2015-05-25T18:06:49.022265
{"xgyro": 0, "zmag": 333, "ygyro": 0, "xmag": 148, "zacc": -986, "xacc": -41, "yacc": -108, "zgyro": 0, "mavpackettype": "RAW_IMU", "ymag": -48, "time_usec": 59702230}	0.000000	2015-05-25T18:06:49.079655
{"mavpackettype": "SCALED_PRESSURE", "press_diff": 0.012421874329447746, "time_boot_ms": 59702, "temperature": 4213, "press_abs": 927.1082763671875}	0.000000	2015-05-25T18:06:49.083641
{"onboard_control_sensors_present": 2161711, "load": 629, "battery_remaining": -1, "errors_count4": 0, "drop_rate_comm": 0, "errors_count2": 0, "errors_count3": 0, "errors_comm": 0, "current_battery": -1, "errors_count1": 0, "onboard_control_sensors_health": 3210287, "mavpackettype": "SYS_STATUS", "onboard_control_sensors_enabled": 2161711, "voltage_battery": 0}	0.000000	2015-05-25T18:06:49.083641
{"mavpackettype": "MISSION_CURRENT", "seq": 0}	0.000000	2015-05-25T18:06:49.087574
{"wp_dist": 2, "nav_pitch": -24.56999969482422, "target_bearing": -170, "nav_roll": -22.719999313354492, "aspd_error": 0.0, "alt_error": 100.1500015258789, "mavpackettype": "NAV_CONTROLLER_OUTPUT", "xtrack_error": -65.07740020751953, "nav_bearing": -170}	0.000000	2015-05-25T18:06:49.099992
{"throttle": 0, "groundspeed": 0.0, "airspeed": 0.0, "climb": -0.08697894960641861, "mavpackettype": "VFR_HUD", "alt": 746.4000244140625, "heading": 43}	0.000000	2015-05-25T18:06:49.103857
{"custom_mode": 11, "system_status": 5, "base_mode": 217, "autopilot": 3, "mavpackettype": "HEARTBEAT", "type": 1, "mavlink_version": 3}	0.000000	2015-05-25T18:06:49.140877
{"pitchspeed": -0.00039992225356400013, "yaw": 0.75177401304245, "rollspeed": 0.0001245866878889501, "time_boot_ms": 59763, "pitch": -0.037805646657943726, "mavpackettype": "ATTITUDE", "yawspeed": -0.0011941211996600032, "roll": 0.18546217679977417}	0.000000	2015-05-25T18:06:49.140877
{"throttle": 0, "groundspeed": 0.0, "airspeed": 0.0, "climb": 0.05649438500404358, "mavpackettype": "VFR_HUD", "alt": 746.4500122070312, "heading": 43}	0.000000	2015-05-25T18:06:49.222537
{"pitchspeed": 0.0013306251494213939, "yaw": 0.7517820596694946, "rollspeed": 0.0004444185469765216, "time_boot_ms": 59881, "pitch": -0.03778544440865517, "mavpackettype": "ATTITUDE", "yawspeed": 0.0015933692920953035, "roll": 0.1854107528924942}	0.000000	2015-05-25T18:06:49.259256
{"throttle": 0, "groundspeed": 0.0, "airspeed": 0.0, "climb": 0.0659395158290863, "mavpackettype": "VFR_HUD", "alt": 746.3499755859375, "heading": 43}	0.000000	2015-05-25T18:06:49.341126
{"vx": 0, "lon": -1109414580, "time_boot_ms": 59941, "hdg": 4306, "relative_alt": -170, "vy": 0, "lat": 322351430, "mavpackettype": "GLOBAL_POSITION_INT", "alt": 746140, "vz": 0}	0.000000	2015-05-25T18:06:49.378123
{"pitchspeed": 0.0013306251494213939, "yaw": 0.7516488432884216, "rollspeed": -8.769167470745742e-05, "time_boot_ms": 60001, "pitch": -0.037745390087366104, "mavpackettype": "ATTITUDE", "yawspeed": 0.0002630951930768788, "roll": 0.18530452251434326}	0.000000	2015-05-25T18:06:49.382000
{"servo4_raw": 1381, "servo2_raw": 1344, "servo6_raw": 1500, "time_usec": 60081885, "servo1_raw": 1259, "servo8_raw": 1500, "servo5_raw": 1555, "mavpackettype": "SERVO_OUTPUT_RAW", "servo3_raw": 952, "port": 0, "servo7_raw": 1500}	0.000000	2015-05-25T18:06:49.459852
{"chan4_raw": 900, "chan2_raw": 900, "chan6_raw": 900, "time_boot_ms": 60082, "chan1_raw": 900, "chan5_raw": 900, "chan3_raw": 900, "chan7_raw": 900, "mavpackettype": "RC_CHANNELS_RAW", "chan8_raw": 900, "port": 0, "rssi": 0}	0.000000	2015-05-25T18:06:49.459852
{"throttle": 0, "groundspeed": 0.0, "airspeed": 0.0, "climb": -0.11621072888374329, "mavpackettype": "VFR_HUD", "alt": 746.3400268554688, "heading": 43}	0.000000	2015-05-25T18:06:49.463739
{"pitchspeed": 0.00026640656869858503, "yaw": 0.7514979839324951, "rollspeed": 0.0007104731630533934, "time_boot_ms": 60124, "pitch": -0.037763435393571854, "mavpackettype": "ATTITUDE", "yawspeed": -0.0005350696737878025, "roll": 0.18525530397891998}	0.000000	2015-05-25T18:06:49.500627
{"throttle": 0, "groundspeed": 0.0, "airspeed": 0.0, "climb": -0.2120276540517807, "mavpackettype": "VFR_HUD", "alt": 746.3599853515625, "heading": 43}	0.000000	2015-05-25T18:06:49.578255
{"xgyro": 0, "zmag": 333, "ygyro": 0, "xmag": 148, "zacc": -990, "xacc": -42, "yacc": -109, "zgyro": 0, "mavpackettype": "RAW_IMU", "ymag": -48, "time_usec": 60224435}	0.000000	2015-05-25T18:06:49.603016
{"mavpackettype": "SCALED_PRESSURE", "press_diff": 0.012968749739229679, "time_boot_ms": 60224, "temperature": 4213, "press_abs": 927.1088256835938}	0.000000	2015-05-25T18:06:49.603016
{"mavpackettype": "MISSION_CURRENT", "seq": 0}	0.000000	2015-05-25T18:06:49.607187
{"wp_dist": 2, "nav_pitch": -24.56999969482422, "target_bearing": -174, "nav_roll": -22.729999542236328, "aspd_error": 0.0, "alt_error": 100.12999725341797, "mavpackettype": "NAV_CONTROLLER_OUTPUT", "xtrack_error": -65.10264587402344, "nav_bearing": -174}	0.000000	2015-05-25T18:06:49.623390
{"mavpackettype": "SYSTEM_TIME", "time_boot_ms": 60248, "time_unix_usec": 1432638334106000}	0.000000	2015-05-25T18:06:49.631577
{"pitchspeed": 0.00026640656869858503, "yaw": 0.751319169998169, "rollspeed": 0.0009765278082340956, "time_boot_ms": 60263, "pitch": -0.03777291625738144, "mavpackettype": "ATTITUDE", "yawspeed": -2.9594521038234234e-06, "roll": 0.18526433408260345}	0.000000	2015-05-25T18:06:49.643512
{"throttle": 0, "groundspeed": 0.0, "airspeed": 0.0, "climb": 0.07677319645881653, "mavpackettype": "VFR_HUD", "alt": 746.3800048828125, "heading": 43}	0.000000	2015-05-25T18:06:49.725377
{"vx": 0, "lon": -1109414580, "time_boot_ms": 60342, "hdg": 4304, "relative_alt": -140, "vy": 0, "lat": 322351430, "mavpackettype": "GLOBAL_POSITION_INT", "alt": 746130, "vz": 0}	0.000000	2015-05-25T18:06:49.741856
{"pitchspeed": 0.00026640656869858503, "yaw": 0.7512388229370117, "rollspeed": 0.0001783634361345321, "time_boot_ms": 60382, "pitch": -0.03778662532567978, "mavpackettype": "ATTITUDE", "yawspeed": 0.0013273146469146013, "roll": 0.18525037169456482}	0.000000	2015-05-25T18:06:49.758212
{"throttle": 0, "groundspeed": 0.0, "airspeed": 0.0, "climb": -0.0017156103858724236, "mavpackettype": "VFR_HUD", "alt": 746.2999877929688, "heading": 43}	0.000000	2015-05-25T18:06:49.839901
{"pitchspeed": 0.0010645686415955424, "yaw": 0.7510817646980286, "rollspeed": -8.769167470745742e-05, "time_boot_ms": 60502, "pitch": -0.03772395849227905, "mavpackettype": "ATTITUDE", "yawspeed": 0.0005291507695801556, "roll": 0.18518584966659546}	0.000000	2015-05-25T18:06:49.876886
{"throttle": 0, "groundspeed": 0.0, "airspeed": 0.0, "climb": -0.12649010121822357, "mavpackettype": "VFR_HUD", "alt": 746.3599853515625, "heading": 43}	0.000000	2015-05-25T18:06:49.958443
{"servo4_raw": 1381, "servo2_raw": 1344, "servo6_raw": 1500, "time_usec": 60624189, "servo1_raw": 1259, "servo8_raw": 1500, "servo5_raw": 1555, "mavpackettype": "SERVO_OUTPUT_RAW", "servo3_raw": 952, "port": 0, "servo7_raw": 1500}	0.000000	2015-05-25T18:06:49.999595
{"chan4_raw": 900, "chan2_raw": 900, "chan6_raw": 900, "time_boot_ms": 60624, "chan1_raw": 900, "chan5_raw": 900, "chan3_raw": 900, "chan7_raw": 900, "mavpackettype": "RC_CHANNELS_RAW", "chan8_raw": 900, "port": 0, "rssi": 0}	0.000000	2015-05-25T18:06:50.003637
{"pitchspeed": 0.000532459351234138, "yaw": 0.7508667707443237, "rollspeed": 0.0001783634361345321, "time_boot_ms": 60624, "pitch": -0.03765813261270523, "mavpackettype": "ATTITUDE", "yawspeed": 0.0005291507695801556, "roll": 0.18514719605445862}	0.000000	2015-05-25T18:06:50.003637
{"vx": 0, "lon": -1109414560, "time_boot_ms": 60543, "hdg": 4300, "relative_alt": -149, "vy": 0, "lat": 322351430, "mavpackettype": "GLOBAL_POSITION_INT", "alt": 746120, "vz": 0}	0.000000	2015-05-25T18:06:50.077279
{"throttle": 0, "groundspeed": 0.0, "airspeed": 0.0, "climb": -0.052849821746349335, "mavpackettype": "VFR_HUD", "alt": 746.3699951171875, "heading": 43}	0.000000	2015-05-25T18:06:50.081244
{"custom_mode": 11, "system_status": 5, "base_mode": 217, "autopilot": 3, "mavpackettype": "HEARTBEAT", "type": 1, "mavlink_version": 3}	0.000000	2015-05-25T18:06:50.122264
{"xgyro": 0, "zmag": 332, "ygyro": 0, "xmag": 148, "zacc": -988, "xacc": -40, "yacc": -111, "zgyro": 0, "mavpackettype": "RAW_IMU", "ymag": -48, "time_usec": 60748500}	0.000000	2015-05-25T18:06:50.126428
{"mavpackettype": "SCALED_PRESSURE", "press_diff": 0.011171874590218067, "time_boot_ms": 60748, "temperature": 4213, "press_abs": 927.1069946289062}	0.000000	2015-05-25T18:06:50.126428
{"mavpackettype": "MISSION_CURRENT", "seq": 0}	0.000000	2015-05-25T18:06:50.138444
{"fix_type": 3, "cog": 29234, "epv": 65535, "lon": -1109414560, "time_usec": 60742000, "eph": 121, "satellites_visible": 7, "lat": 322351430, "mavpackettype": "GPS_RAW_INT", "alt": 746120, "vel": 0}	0.000000	2015-05-25T18:06:50.142763
{"wp_dist": 2, "nav_pitch": -24.56999969482422, "target_bearing": -170, "nav_roll": -22.719999313354492, "aspd_error": 0.0, "alt_error": 100.12999725341797, "mavpackettype": "NAV_CONTROLLER_OUTPUT", "xtrack_error": -65.07740020751953, "nav_bearing": -170}	0.000000	2015-05-25T18:06:50.146929
{"pitchspeed": 0.00026640656869858503, "yaw": 0.7505295276641846, "rollspeed": 0.0001783634361345321, "time_boot_ms": 60766, "pitch": -0.03764927759766579, "mavpackettype": "ATTITUDE", "yawspeed": 0.0010612600017338991, "roll": 0.18508897721767426}	0.000000	2015-05-25T18:06:50.146929
{"mavpackettype": "SYSTEM_TIME", "time_boot_ms": 60784, "time_unix_usec": 1432638334642000}	0.000000	2015-05-25T18:06:50.163306
{"throttle": 0, "groundspeed": 0.0, "airspeed": 0.0, "climb": 0.1911604106426239, "mavpackettype": "VFR_HUD", "alt": 746.4099731445312, "heading": 42}	0.000000	2015-05-25T18:06:50.224280
{"pitchspeed": 0.0010645686415955424, "yaw": 0.7503269910812378, "rollspeed": 0.0004444185469765216, "time_boot_ms": 60883, "pitch": -0.0375923216342926, "mavpackettype": "ATTITUDE", "yawspeed": 0.0010612600017338991, "roll": 0.18501664698123932}	0.000000	2015-05-25T18:06:50.260945
{"throttle": 0, "groundspeed": 0.0, "airspeed": 0.0, "climb": 0.14925463497638702, "mavpackettype": "VFR_HUD", "alt": 746.4000244140625, "heading": 42}	0.000000	2015-05-25T18:06:50.342855
{"pitchspeed": 0.0007985158590599895, "yaw": 0.7502123713493347, "rollspeed": 0.0004444185469765216, "time_boot_ms": 61003, "pitch": -0.03757907822728157, "mavpackettype": "ATTITUDE", "yawspeed": -2.9594521038234234e-06, "roll": 0.1849733293056488}	0.000000	2015-05-25T18:06:50.379662
{"vx": 0, "lon": -1109414560, "time_boot_ms": 60942, "hdg": 4298, "relative_alt": -99, "vy": 0, "lat": 322351450, "mavpackettype": "GLOBAL_POSITION_INT", "alt": 746130, "vz": 0}	0.000000	2015-05-25T18:06:50.440981
{"throttle": 0, "groundspeed": 0.0, "airspeed": 0.0, "climb": 0.10835027694702148, "mavpackettype": "VFR_HUD", "alt": 746.4199829101562, "heading": 42}	0.000000	2015-05-25T18:06:50.457486
{"pitchspeed": 0.00026640656869858503, "yaw": 0.7501016855239868, "rollspeed": -8.769167470745742e-05, "time_boot_ms": 61125, "pitch": -0.037602294236421585, "mavpackettype": "ATTITUDE", "yawspeed": 0.0007952054147608578, "roll": 0.18493197858333588}	0.000000	2015-05-25T18:06:50.502217
{"servo4_raw": 1382, "servo2_raw": 1344, "servo6_raw": 1500, "time_usec": 61166596, "servo1_raw": 1260, "servo8_raw": 1500, "servo5_raw": 1555, "mavpackettype": "SERVO_OUTPUT_RAW", "servo3_raw": 952, "port": 0, "servo7_raw": 1500}	0.000000	2015-05-25T18:06:50.539228
{"chan4_raw": 900, "chan2_raw": 900, "chan6_raw": 900, "time_boot_ms": 61166, "chan1_raw": 900, "chan5_raw": 900, "chan3_raw": 900, "chan7_raw": 900, "mavpackettype": "RC_CHANNELS_RAW", "chan8_raw": 900, "port": 0, "rssi": 0}	0.000000	2015-05-25T18:06:50.543347
{"throttle": 0, "groundspeed": 0.0, "airspeed": 0.0, "climb": 0.12579654157161713, "mavpackettype": "VFR_HUD", "alt": 746.469970703125, "heading": 42}	0.000000	2015-05-25T18:06:50.579946
{"pitchspeed": 3.5007542464882135e-07, "yaw": 0.7500135898590088, "rollspeed": 0.0004444185469765216, "time_boot_ms": 61248, "pitch": -0.03766121342778206, "mavpackettype": "ATTITUDE", "yawspeed": 0.0005291507695801556, "roll": 0.18491226434707642}	0.000000	2015-05-25T18:06:50.624961
{"xgyro": 0, "zmag": 333, "ygyro": 0, "xmag": 148, "zacc": -987, "xacc": -40, "yacc": -113, "zgyro": 0, "mavpackettype": "RAW_IMU", "ymag": -48, "time_usec": 61264997}	0.000000	2015-05-25T18:06:50.641558
{"mavpackettype": "SCALED_PRESSURE", "press_diff": 0.015156249515712261, "time_boot_ms": 61265, "temperature": 4214, "press_abs": 927.1110229492188}	0.000000	2015-05-25T18:06:50.641558
{"mavpackettype": "MISSION_CURRENT", "seq": 0}	0.000000	2015-05-25T18:06:50.645825
{"wp_dist": 3, "nav_pitch": -24.56999969482422, "target_bearing": -171, "nav_roll": -22.649999618530273, "aspd_error": 0.0, "alt_error": 100.0999984741211, "mavpackettype": "NAV_CONTROLLER_OUTPUT", "xtrack_error": -64.85765838623047, "nav_bearing": -171}	0.000000	2015-05-25T18:06:50.698869
{"mavpackettype": "SYSTEM_TIME", "time_boot_ms": 61326, "time_unix_usec": 1432638335185000}	0.000000	2015-05-25T18:06:50.707013
{"throttle": 0, "groundspeed": 0.0, "airspeed": 0.0, "climb": -0.01573718525469303, "mavpackettype": "VFR_HUD", "alt": 746.3699951171875, "heading": 42}	0.000000	2015-05-25T18:06:50.723437
{"pitchspeed": 0.00026640656869858503, "yaw": 0.7498407959938049, "rollspeed": 0.0001783634361345321, "time_boot_ms": 61384, "pitch": -0.037673477083444595, "mavpackettype": "ATTITUDE", "yawspeed": -2.9594521038234234e-06, "roll": 0.18488971889019012}	0.000000	2015-05-25T18:06:50.759912
{"vx": 0, "lon": -1109414560, "time_boot_ms": 61343, "hdg": 4295, "relative_alt": -40, "vy": 0, "lat": 322351450, "mavpackettype": "GLOBAL_POSITION_INT", "alt": 746150, "vz": 0}	0.000000	2015-05-25T18:06:50.800866
{"throttle": 0, "groundspeed": 0.0, "airspeed": 0.0, "climb": -0.04701030254364014, "mavpackettype": "VFR_HUD", "alt": 746.47998046875, "heading": 42}	0.000000	2015-05-25T18:06:50.837708
{"pitchspeed": 0.000532459351234138, "yaw": 0.7497192025184631, "rollspeed": 0.0004444185469765216, "time_boot_ms": 61504, "pitch": -0.03767403960227966, "mavpackettype": "ATTITUDE", "yawspeed": 0.0002630951930768788, "roll": 0.18486951291561127}	0.000000	2015-05-25T18:06:50.878575
{"throttle": 0, "groundspeed": 0.0, "airspeed": 0.0, "climb": 0.12801679968833923, "mavpackettype": "VFR_HUD", "alt": 746.5, "heading": 42}	0.000000	2015-05-25T18:06:50.960247
{"pitchspeed": 0.000532459351234138, "yaw": 0.7495686411857605, "rollspeed": -8.769167470745742e-05, "time_boot_ms": 61625, "pitch": -0.037629980593919754, "mavpackettype": "ATTITUDE", "yawspeed": -0.00026901409728452563, "roll": 0.18483270704746246}	0.000000	2015-05-25T18:06:51.001209
{"servo4_raw": 1382, "servo2_raw": 1344, "servo6_raw": 1500, "time_usec": 61704656, "servo1_raw": 1260, "servo8_raw": 1500, "servo5_raw": 1555, "mavpackettype": "SERVO_OUTPUT_RAW", "servo3_raw": 952, "port": 0, "servo7_raw": 1500}	0.000000	2015-05-25T18:06:51.079039
{"chan4_raw": 900, "chan2_raw": 900, "chan6_raw": 900, "time_boot_ms": 61704, "chan1_raw": 900, "chan5_raw": 900, "chan3_raw": 900, "chan7_raw": 900, "mavpackettype": "RC_CHANNELS_RAW", "chan8_raw": 900, "port": 0, "rssi": 0}	0.000000	2015-05-25T18:06:51.079039
{"throttle": 0, "groundspeed": 0.0, "airspeed": 0.0, "climb": 0.1749451458454132, "mavpackettype": "VFR_HUD", "alt": 746.4199829101562, "heading": 42}	0.000000	2015-05-25T18:06:51.083092
{"custom_mode": 11, "system_status": 5, "base_mode": 217, "autopilot": 3, "mavpackettype": "HEARTBEAT", "type": 1, "mavlink_version": 3}	0.000000	2015-05-25T18:06:51.124098
{"pitchspeed": 0.0007985158590599895, "yaw": 0.7494794726371765, "rollspeed": 0.0004444185469765216, "time_boot_ms": 61749, "pitch": -0.03768188878893852, "mavpackettype": "ATTITUDE", "yawspeed": -2.9594521038234234e-06, "roll": 0.18482278287410736}	0.000000	2015-05-25T18:06:51.124098
{"vx": 0, "lon": -1109414560, "time_boot_ms": 61744, "hdg": 4294, "relative_alt": -89, "vy": 0, "lat": 322351450, "mavpackettype": "GLOBAL_POSITION_INT", "alt": 746150, "vz": 0}	0.000000	2015-05-25T18:06:51.140377
{"xgyro": 0, "zmag": 334, "ygyro": 0, "xmag": 148, "zacc": -990, "xacc": -40, "yacc": -112, "zgyro": 0, "mavpackettype": "RAW_IMU", "ymag": -48, "time_usec": 61785198}	0.000000	2015-05-25T18:06:51.160946
{"mavpackettype": "SCALED_PRESSURE", "press_diff": 0.016249999403953552, "time_boot_ms": 61785, "temperature": 4214, "press_abs": 927.112060546875}	0.000000	2015-05-25T18:06:51.160946
{"mavpackettype": "MISSION_CURRENT", "seq": 0}	0.000000	2015-05-25T18:06:51.165145
{"fix_type": 3, "cog": 29234, "epv": 65535, "lon": -1109414560, "time_usec": 61744000, "eph": 121, "satellites_visible": 7, "lat": 322351450, "mavpackettype": "GPS_RAW_INT", "alt": 746150, "vel": 0}	0.000000	2015-05-25T18:06:51.222224
{"wp_dist": 3, "nav_pitch": -24.56999969482422, "target_bearing": -171, "nav_roll": -22.649999618530273, "aspd_error": 0.0, "alt_error": 100.15999603271484, "mavpackettype": "NAV_CONTROLLER_OUTPUT", "xtrack_error": -64.85765838623047, "nav_bearing": -171}	0.000000	2015-05-25T18:06:51.226367
{"throttle": 0, "groundspeed": 0.0, "airspeed": 0.0, "climb": -0.24302920699119568, "mavpackettype": "VFR_HUD", "alt": 746.3599853515625, "heading": 42}	0.000000	2015-05-25T18:06:51.230224
{"mavpackettype": "SYSTEM_TIME", "time_boot_ms": 61866, "time_unix_usec": 1432638335724000}	0.000000	2015-05-25T18:06:51.242814
{"pitchspeed": -0.0005317592294886708, "yaw": 0.7493396401405334, "rollspeed": 0.0004444185469765216, "time_boot_ms": 61885, "pitch": -0.03771848604083061, "mavpackettype": "ATTITUDE", "yawspeed": -2.9594521038234234e-06, "roll": 0.1848568320274353}	0.000000	2015-05-25T18:06:51.258982
{"throttle": 0, "groundspeed": 0.0, "airspeed": 0.0, "climb": -0.17670178413391113, "mavpackettype": "VFR_HUD", "alt": 746.4199829101562, "heading": 42}	0.000000	2015-05-25T18:06:51.340621
{"pitchspeed": 0.00026640656869858503, "yaw": 0.7492111325263977, "rollspeed": 0.0007104731630533934, "time_boot_ms": 62005, "pitch": -0.03771506994962692, "mavpackettype": "ATTITUDE", "yawspeed": -2.9594521038234234e-06, "roll": 0.18488362431526184}	0.000000	2015-05-25T18:06:51.377599
{"throttle": 0, "groundspeed": 0.0, "airspeed": 0.0, "climb": 0.09360162168741226, "mavpackettype": "VFR_HUD", "alt": 746.489990234375, "heading": 42}	0.000000	2015-05-25T18:06:51.459076
{"vx": 0, "lon": -1109414560, "time_boot_ms": 61944, "hdg": 4292, "relative_alt": 20, "vy": 0, "lat": 322351450, "mavpackettype": "GLOBAL_POSITION_INT", "alt": 746150, "vz": 0}	0.000000	2015-05-25T18:06:51.500292
{"pitchspeed": 3.5007542464882135e-07, "yaw": 0.7491503357887268, "rollspeed": 0.0004444185469765216, "time_boot_ms": 62127, "pitch": -0.03774024546146393, "mavpackettype": "ATTITUDE", "yawspeed": 0.0018594248685985804, "roll": 0.18484969437122345}	0.000000	2015-05-25T18:06:51.504232
{"throttle": 0, "groundspeed": 0.0, "airspeed": 0.0, "climb": 0.34959930181503296, "mavpackettype": "VFR_HUD", "alt": 746.5399780273438, "heading": 42}	0.000000	2015-05-25T18:06:51.577834
{"servo4_raw": 1382, "servo2_raw": 1344, "servo6_raw": 1500, "time_usec": 62250195, "servo1_raw": 1260, "servo8_raw": 1500, "servo5_raw": 1555, "mavpackettype": "SERVO_OUTPUT_RAW", "servo3_raw": 952, "port": 0, "servo7_raw": 1500}	0.000000	2015-05-25T18:06:51.622948
{"chan4_raw": 900, "chan2_raw": 900, "chan6_raw": 900, "time_boot_ms": 62250, "chan1_raw": 900, "chan5_raw": 900, "chan3_raw": 900, "chan7_raw": 900, "mavpackettype": "RC_CHANNELS_RAW", "chan8_raw": 900, "port": 0, "rssi": 0}	0.000000	2015-05-25T18:06:51.627020
{"pitchspeed": 0.000532459351234138, "yaw": 0.7490739226341248, "rollspeed": 0.0007104731630533934, "time_boot_ms": 62250, "pitch": -0.0377560630440712, "mavpackettype": "ATTITUDE", "yawspeed": -2.9594521038234234e-06, "roll": 0.184833824634552}	0.000000	2015-05-25T18:06:51.627020
{"xgyro": 0, "zmag": 331, "ygyro": 0, "xmag": 148, "zacc": -990, "xacc": -39, "yacc": -111, "zgyro": 0, "mavpackettype": "RAW_IMU", "ymag": -48, "time_usec": 62306110}	0.000000	2015-05-25T18:06:51.680259
{"mavpackettype": "SCALED_PRESSURE", "press_diff": 0.01406249962747097, "time_boot_ms": 62306, "temperature": 4215, "press_abs": 927.1099243164062}	0.000000	2015-05-25T18:06:51.680259
{"mavpackettype": "MISSION_CURRENT", "seq": 0}	0.000000	2015-05-25T18:06:51.684555
{"fix_type": 3, "cog": 29234, "epv": 65535, "lon": -1109414550, "time_usec": 62345000, "eph": 121, "satellites_visible": 7, "lat": 322351450, "mavpackettype": "GPS_RAW_INT", "alt": 746140, "vel": 0}	0.000000	2015-05-25T18:06:51.725295
{"wp_dist": 3, "nav_pitch": -24.56999969482422, "target_bearing": -171, "nav_roll": -22.649999618530273, "aspd_error": 0.0, "alt_error": 100.13999938964844, "mavpackettype": "NAV_CONTROLLER_OUTPUT", "xtrack_error": -64.85765838623047, "nav_bearing": -171}	0.000000	2015-05-25T18:06:51.725295
{"throttle": 0, "groundspeed": 0.0, "airspeed": 0.0, "climb": -0.09838276356458664, "mavpackettype": "VFR_HUD", "alt": 746.3800048828125, "heading": 42}	0.000000	2015-05-25T18:06:51.729109
{"pitchspeed": 0.00026640656869858503, "yaw": 0.7488132119178772, "rollspeed": 0.0007104731630533934, "time_boot_ms": 62385, "pitch": -0.03778146579861641, "mavpackettype": "ATTITUDE", "yawspeed": 0.0002630951930768788, "roll": 0.1848088651895523}	0.000000	2015-05-25T18:06:51.757842
{"mavpackettype": "SYSTEM_TIME", "time_boot_ms": 62405, "time_unix_usec": 1432638336263000}	0.000000	2015-05-25T18:06:51.782562
{"throttle": 0, "groundspeed": 0.0, "airspeed": 0.0, "climb": -0.3751883804798126, "mavpackettype": "VFR_HUD", "alt": 746.3900146484375, "heading": 42}	0.000000	2015-05-25T18:06:51.839472
{"vx": 0, "lon": -1109414550, "time_boot_ms": 62345, "hdg": 4289, "relative_alt": -130, "vy": 0, "lat": 322351450, "mavpackettype": "GLOBAL_POSITION_INT", "alt": 746140, "vz": 0}	0.000000	2015-05-25T18:06:51.859783
{"pitchspeed": 0.0007985158590599895, "yaw": 0.7486447095870972, "rollspeed": 0.0009765278082340956, "time_boot_ms": 62505, "pitch": -0.03777999430894852, "mavpackettype": "ATTITUDE", "yawspeed": 0.0010612600017338991, "roll": 0.1848398596048355}	0.000000	2015-05-25T18:06:51.876467
{"throttle": 0, "groundspeed": 0.0, "airspeed": 0.0, "climb": -0.24913839995861053, "mavpackettype": "VFR_HUD", "alt": 746.4099731445312, "heading": 42}	0.000000	2015-05-25T18:06:51.958086
{"pitchspeed": 0.000532459351234138, "yaw": 0.7484270334243774, "rollspeed": 0.0007104731630533934, "time_boot_ms": 62628, "pitch": -0.037771232426166534, "mavpackettype": "ATTITUDE", "yawspeed": -2.9594521038234234e-06, "roll": 0.18483050167560577}	0.000000	2015-05-25T18:06:51.999108
{"throttle": 0, "groundspeed": 0.0, "airspeed": 0.0, "climb": 0.14803190529346466, "mavpackettype": "VFR_HUD", "alt": 746.530029296875, "heading": 42}	0.000000	2015-05-25T18:06:52.076726
{"custom_mode": 11, "system_status": 5, "base_mode": 217, "autopilot": 3, "mavpackettype": "HEARTBEAT", "type": 1, "mavlink_version": 3}	0.000000	2015-05-25T18:06:52.121726
{"pitchspeed": 3.5007542464882135e-07, "yaw": 0.7483052611351013, "rollspeed": 0.0004444185469765216, "time_boot_ms": 62751, "pitch": -0.03776724636554718, "mavpackettype": "ATTITUDE", "yawspeed": 0.0002630951930768788, "roll": 0.18480214476585388}	0.000000	2015-05-25T18:06:52.125659
{"servo4_raw": 1382, "servo2_raw": 1344, "servo6_raw": 1500, "time_usec": 62786132, "servo1_raw": 1260, "servo8_raw": 1500, "servo5_raw": 1555, "mavpackettype": "SERVO_OUTPUT_RAW", "servo3_raw": 952, "port": 0, "servo7_raw": 1500}	0.000000	2015-05-25T18:06:52.158589
{"chan4_raw": 900, "chan2_raw": 900, "chan6_raw": 900, "time_boot_ms": 62786, "chan1_raw": 900, "chan5_raw": 900, "chan3_raw": 900, "chan7_raw": 900, "mavpackettype": "RC_CHANNELS_RAW", "chan8_raw": 900, "port": 0, "rssi": 0}	0.000000	2015-05-25T18:06:52.158589
{"xgyro": 0, "zmag": 333, "ygyro": 0, "xmag": 148, "zacc": -988, "xacc": -41, "yacc": -110, "zgyro": 0, "mavpackettype": "RAW_IMU", "ymag": -49, "time_usec": 62827389}	0.000000	2015-05-25T18:06:52.199537
{"mavpackettype": "SCALED_PRESSURE", "press_diff": 0.001015624962747097, "time_boot_ms": 62827, "temperature": 4215, "press_abs": 927.0968627929688}	0.000000	2015-05-25T18:06:52.199537
{"onboard_control_sensors_present": 2161711, "load": 632, "battery_remaining": -1, "errors_count4": 0, "drop_rate_comm": 0, "errors_count2": 0, "errors_count3": 0, "errors_comm": 0, "current_battery": -1, "errors_count1": 0, "onboard_control_sensors_health": 3210287, "mavpackettype": "SYS_STATUS", "onboard_control_sensors_enabled": 2161711, "voltage_battery": 0}	0.000000	2015-05-25T18:06:52.203562
{"mavpackettype": "MISSION_CURRENT", "seq": 0}	0.000000	2015-05-25T18:06:52.207511
{"fix_type": 3, "cog": 29234, "epv": 65535, "lon": -1109414550, "time_usec": 62746000, "eph": 121, "satellites_visible": 7, "lat": 322351450, "mavpackettype": "GPS_RAW_INT", "alt": 746140, "vel": 0}	0.000000	2015-05-25T18:06:52.224080
{"wp_dist": 3, "nav_pitch": -24.56999969482422, "target_bearing": -169, "nav_roll": -22.649999618530273, "aspd_error": 0.0, "alt_error": 100.00999450683594, "mavpackettype": "NAV_CONTROLLER_OUTPUT", "xtrack_error": -64.8416748046875, "nav_bearing": -169}	0.000000	2015-05-25T18:06:52.228215
{"vx": 0, "lon": -1109414550, "time_boot_ms": 62746, "hdg": 4287, "relative_alt": -10, "vy": 0, "lat": 322351450, "mavpackettype": "GLOBAL_POSITION_INT", "alt": 746140, "vz": 0}	0.000000	2015-05-25T18:06:52.228215
{"throttle": 0, "groundspeed": 0.0, "airspeed": 0.0, "climb": 0.41089993715286255, "mavpackettype": "VFR_HUD", "alt": 746.510009765625, "heading": 42}	0.000000	2015-05-25T18:06:52.232075
{"pitchspeed": 0.0007985158590599895, "yaw": 0.7482487559318542, "rollspeed": 0.0012425833847373724, "time_boot_ms": 62886, "pitch": -0.0377962552011013, "mavpackettype": "ATTITUDE", "yawspeed": 0.0005291507695801556, "roll": 0.18481819331645966}	0.000000	2015-05-25T18:06:52.256706
{"throttle": 0, "groundspeed": 0.0, "airspeed": 0.0, "climb": -0.02103513479232788, "mavpackettype": "VFR_HUD", "alt": 746.3900146484375, "heading": 42}	0.000000	2015-05-25T18:06:52.342352
{"pitchspeed": 0.0007985158590599895, "yaw": 0.7481901049613953, "rollspeed": 0.0012425833847373724, "time_boot_ms": 63006, "pitch": -0.03780486062169075, "mavpackettype": "ATTITUDE", "yawspeed": 0.0005291507695801556, "roll": 0.1848372519016266}	0.000000	2015-05-25T18:06:52.379147
{"throttle": 0, "groundspeed": 0.0, "airspeed": 0.0, "climb": -0.31823480129241943, "mavpackettype": "VFR_HUD", "alt": 746.510009765625, "heading": 42}	0.000000	2015-05-25T18:06:52.456930
{"pitchspeed": 0.000532459351234138, "yaw": 0.74811851978302, "rollspeed": 0.0009765278082340956, "time_boot_ms": 63127, "pitch": -0.03780987113714218, "mavpackettype": "ATTITUDE", "yawspeed": -2.9594521038234234e-06, "roll": 0.18487901985645294}	0.000000	2015-05-25T18:06:52.497948
{"vx": 0, "lon": -1109414550, "time_boot_ms": 63147, "hdg": 4286, "relative_alt": -120, "vy": 0, "lat": 322351450, "mavpackettype": "GLOBAL_POSITION_INT", "alt": 746150, "vz": 0}	0.000000	2015-05-25T18:06:52.559046
{"throttle": 0, "groundspeed": 0.0, "airspeed": 0.0, "climb": -0.22797895967960358, "mavpackettype": "VFR_HUD", "alt": 746.4000244140625, "heading": 42}	0.000000	2015-05-25T18:06:52.579419
{"pitchspeed": 0.0013306251494213939, "yaw": 0.7480021715164185, "rollspeed": 0.0009765278082340956, "time_boot_ms": 63252, "pitch": -0.03780202940106392, "mavpackettype": "ATTITUDE", "yawspeed": -2.9594521038234234e-06, "roll": 0.18489615619182587}	0.000000	2015-05-25T18:06:52.624600
{"servo4_raw": 1381, "servo2_raw": 1344, "servo6_raw": 1500, "time_usec": 63328675, "servo1_raw": 1259, "servo8_raw": 1500, "servo5_raw": 1555, "mavpackettype": "SERVO_OUTPUT_RAW", "servo3_raw": 952, "port": 0, "servo7_raw": 1500}	0.000000	2015-05-25T18:06:52.698352
{"chan4_raw": 900, "chan2_raw": 900, "chan6_raw": 900, "time_boot_ms": 63328, "chan1_raw": 900, "chan5_raw": 900, "chan3_raw": 900, "chan7_raw": 900, "mavpackettype": "RC_CHANNELS_RAW", "chan8_raw": 900, "port": 0, "rssi": 0}	0.000000	2015-05-25T18:06:52.702478
{"throttle": 0, "groundspeed": 0.0, "airspeed": 0.0, "climb": -0.041832659393548965, "mavpackettype": "VFR_HUD", "alt": 746.5, "heading": 42}	0.000000	2015-05-25T18:06:52.702478
{"xgyro": 0, "zmag": 333, "ygyro": 0, "xmag": 148, "zacc": -988, "xacc": -41, "yacc": -112, "zgyro": 0, "mavpackettype": "RAW_IMU", "ymag": -49, "time_usec": 63351983}	0.000000	2015-05-25T18:06:52.722878
{"mavpackettype": "SCALED_PRESSURE", "press_diff": 0.003281249897554517, "time_boot_ms": 63351, "temperature": 4216, "press_abs": 927.09912109375}	0.000000	2015-05-25T18:06:52.727064
{"onboard_control_sensors_present": 2161711, "load": 627, "battery_remaining": -1, "errors_count4": 0, "drop_rate_comm": 0, "errors_count2": 0, "errors_count3": 0, "errors_comm": 0, "current_battery": -1, "errors_count1": 0, "onboard_control_sensors_health": 3210287, "mavpackettype": "SYS_STATUS", "onboard_control_sensors_enabled": 2161711, "voltage_battery": 0}	0.000000	2015-05-25T18:06:52.727064
{"mavpackettype": "MISSION_CURRENT", "seq": 0}	0.000000	2015-05-25T18:06:52.730919
{"fix_type": 3, "cog": 29234, "epv": 65535, "lon": -1109414550, "time_usec": 63346000, "eph": 121, "satellites_visible": 7, "lat": 322351450, "mavpackettype": "GPS_RAW_INT", "alt": 746150, "vel": 0}	0.000000	2015-05-25T18:06:52.759826
{"wp_dist": 2, "nav_pitch": -24.56999969482422, "target_bearing": -168, "nav_roll": -22.719999313354492, "aspd_error": 0.0, "alt_error": 100.0199966430664, "mavpackettype": "NAV_CONTROLLER_OUTPUT", "xtrack_error": -65.0601806640625, "nav_bearing": -168}	0.000000	2015-05-25T18:06:52.759826
{"pitchspeed": 3.5007542464882135e-07, "yaw": 0.7478650212287903, "rollspeed": 0.0007104731630533934, "time_boot_ms": 63387, "pitch": -0.03782273083925247, "mavpackettype": "ATTITUDE", "yawspeed": 0.0010612600017338991, "roll": 0.184914231300354}	0.000000	2015-05-25T18:06:52.763682
{"throttle": 0, "groundspeed": 0.0, "airspeed": 0.0, "climb": 0.12808093428611755, "mavpackettype": "VFR_HUD", "alt": 746.47998046875, "heading": 42}	0.000000	2015-05-25T18:06:52.837320
{"mavpackettype": "SYSTEM_TIME", "time_boot_ms": 63488, "time_unix_usec": 1432638337346000}	0.000000	2015-05-25T18:06:52.862024
{"pitchspeed": 0.000532459351234138, "yaw": 0.7477332949638367, "rollspeed": 0.0007104731630533934, "time_boot_ms": 63507, "pitch": -0.03779028356075287, "mavpackettype": "ATTITUDE", "yawspeed": -2.9594521038234234e-06, "roll": 0.18490326404571533}	0.000000	2015-05-25T18:06:52.878199
{"vx": 0, "lon": -1109414550, "time_boot_ms": 63546, "hdg": 4283, "relative_alt": -99, "vy": 0, "lat": 322351450, "mavpackettype": "GLOBAL_POSITION_INT", "alt": 746150, "vz": 0}	0.000000	2015-05-25T18:06:52.923172
{"throttle": 0, "groundspeed": 0.0, "airspeed": 0.0, "climb": 0.049905356019735336, "mavpackettype": "VFR_HUD", "alt": 746.4199829101562, "heading": 42}	0.000000	2015-05-25T18:06:52.959814
{"pitchspeed": 0.00026640656869858503, "yaw": 0.7475149631500244, "rollspeed": 0.0001783634361345321, "time_boot_ms": 63628, "pitch": -0.037785544991493225, "mavpackettype": "ATTITUDE", "yawspeed": 0.0002630951930768788, "roll": 0.18486705422401428}	0.000000	2015-05-25T18:06:53.000824
{"throttle": 0, "groundspeed": 0.0, "airspeed": 0.0, "climb": 0.0078020766377449036, "mavpackettype": "VFR_HUD", "alt": 746.5599975585938, "heading": 42}	0.000000	2015-05-25T18:06:53.078437
{"custom_mode": 11, "system_status": 5, "base_mode": 217, "autopilot": 3, "mavpackettype": "HEARTBEAT", "type": 1, "mavlink_version": 3}	0.000000	2015-05-25T18:06:53.123548
{"pitchspeed": 0.0010645686415955424, "yaw": 0.7475476264953613, "rollspeed": -8.769167470745742e-05, "time_boot_ms": 63752, "pitch": -0.037790313363075256, "mavpackettype": "ATTITUDE", "yawspeed": 0.0005291507695801556, "roll": 0.1848086714744568}	0.000000	2015-05-25T18:06:53.123548
{"throttle": 0, "groundspeed": 0.0, "airspeed": 0.0, "climb": 0.0762806087732315, "mavpackettype": "VFR_HUD", "alt": 746.4000244140625, "heading": 42}	0.000000	2015-05-25T18:06:53.201087
{"xgyro": 0, "zmag": 333, "ygyro": 0, "xmag": 148, "zacc": -988, "xacc": -39, "yacc": -111, "zgyro": 0, "mavpackettype": "RAW_IMU", "ymag": -48, "time_usec": 63868111}	0.000000	2015-05-25T18:06:53.238166
{"mavpackettype": "SCALED_PRESSURE", "press_diff": 0.0007031249697320163, "time_boot_ms": 63868, "temperature": 4216, "press_abs": 927.0965576171875}	0.000000	2015-05-25T18:06:53.242214
{"onboard_control_sensors_present": 2161711, "load": 641, "battery_remaining": -1, "errors_count4": 0, "drop_rate_comm": 0, "errors_count2": 0, "errors_count3": 0, "errors_comm": 0, "current_battery": -1, "errors_count1": 0, "onboard_control_sensors_health": 3210287, "mavpackettype": "SYS_STATUS", "onboard_control_sensors_enabled": 2161711, "voltage_battery": 0}	0.000000	2015-05-25T18:06:53.246387
{"mavpackettype": "MISSION_CURRENT", "seq": 0}	0.000000	2015-05-25T18:06:53.258893
{"fix_type": 3, "cog": 29234, "epv": 65535, "lon": -1109414550, "time_usec": 63747000, "eph": 121, "satellites_visible": 7, "lat": 322351450, "mavpackettype": "GPS_RAW_INT", "alt": 746160, "vel": 0}	0.000000	2015-05-25T18:06:53.258893
{"wp_dist": 3, "nav_pitch": -24.56999969482422, "target_bearing": -169, "nav_roll": -22.649999618530273, "aspd_error": 0.0, "alt_error": 100.1199951171875, "mavpackettype": "NAV_CONTROLLER_OUTPUT", "xtrack_error": -64.8416748046875, "nav_bearing": -169}	0.000000	2015-05-25T18:06:53.262696
{"servo4_raw": 1382, "servo2_raw": 1344, "servo6_raw": 1500, "time_usec": 63889513, "servo1_raw": 1260, "servo8_raw": 1500, "servo5_raw": 1555, "mavpackettype": "SERVO_OUTPUT_RAW", "servo3_raw": 952, "port": 0, "servo7_raw": 1500}	0.000000	2015-05-25T18:06:53.266818
{"chan4_raw": 900, "chan2_raw": 900, "chan6_raw": 900, "time_boot_ms": 63889, "chan1_raw": 900, "chan5_raw": 900, "chan3_raw": 900, "chan7_raw": 900, "mavpackettype": "RC_CHANNELS_RAW", "chan8_raw": 900, "port": 0, "rssi": 0}	0.000000	2015-05-25T18:06:53.266818
{"pitchspeed": -0.0005317592294886708, "yaw": 0.7474283576011658, "rollspeed": 0.0007104731630533934, "time_boot_ms": 63907, "pitch": -0.037790361791849136, "mavpackettype": "ATTITUDE", "yawspeed": -2.9594521038234234e-06, "roll": 0.1847771853208542}	0.000000	2015-05-25T18:06:53.279042
{"vx": 0, "lon": -1109414550, "time_boot_ms": 63747, "hdg": 4282, "relative_alt": -120, "vy": 0, "lat": 322351450, "mavpackettype": "GLOBAL_POSITION_INT", "alt": 746160, "vz": 0}	0.000000	2015-05-25T18:06:53.282764
{"throttle": 0, "groundspeed": 0.0, "airspeed": 0.0, "climb": -0.1492263376712799, "mavpackettype": "VFR_HUD", "alt": 746.510009765625, "heading": 42}	0.000000	2015-05-25T18:06:53.356862
{"pitchspeed": 0.00026640656869858503, "yaw": 0.7473448514938354, "rollspeed": 0.0009765278082340956, "time_boot_ms": 64007, "pitch": -0.03779242932796478, "mavpackettype": "ATTITUDE", "yawspeed": -0.0005350696737878025, "roll": 0.18480555713176727}	0.000000	2015-05-25T18:06:53.377071
{"mavpackettype": "SYSTEM_TIME", "time_boot_ms": 64053, "time_unix_usec": 1432638337911000}	0.000000	2015-05-25T18:06:53.426382
{"throttle": 0, "groundspeed": 0.0, "airspeed": 0.0, "climb": -0.05143488571047783, "mavpackettype": "VFR_HUD", "alt": 746.469970703125, "heading": 42}	0.000000	2015-05-25T18:06:53.479191
{"pitchspeed": 0.000532459351234138, "yaw": 0.7472100853919983, "rollspeed": -8.769167470745742e-05, "time_boot_ms": 64129, "pitch": -0.03779221326112747, "mavpackettype": "ATTITUDE", "yawspeed": -2.9594521038234234e-06, "roll": 0.18480579555034637}	0.000000	2015-05-25T18:06:53.499683
{"throttle": 0, "groundspeed": 0.0, "airspeed": 0.0, "climb": 0.11978905647993088, "mavpackettype": "VFR_HUD", "alt": 746.5599975585938, "heading": 42}	0.000000	2015-05-25T18:06:53.597860
{"vx": 0, "lon": -1109414550, "time_boot_ms": 64147, "hdg": 4280, "relative_alt": 40, "vy": 0, "lat": 322351450, "mavpackettype": "GLOBAL_POSITION_INT", "alt": 746190, "vz": 0}	0.000000	2015-05-25T18:06:53.622576
{"pitchspeed": 0.00026640656869858503, "yaw": 0.7470028400421143, "rollspeed": -8.769167470745742e-05, "time_boot_ms": 64253, "pitch": -0.03778883442282677, "mavpackettype": "ATTITUDE", "yawspeed": -2.9594521038234234e-06, "roll": 0.18479318916797638}	0.000000	2015-05-25T18:06:53.626452
{"throttle": 0, "groundspeed": 0.0, "airspeed": 0.0, "climb": 0.15003547072410583, "mavpackettype": "VFR_HUD", "alt": 746.510009765625, "heading": 42}	0.000000	2015-05-25T18:06:53.724418
{"pitchspeed": 0.0007985158590599895, "yaw": 0.7468257546424866, "rollspeed": 0.0009765278082340956, "time_boot_ms": 64370, "pitch": -0.03772546350955963, "mavpackettype": "ATTITUDE", "yawspeed": 0.0002630951930768788, "roll": 0.18478204309940338}	0.000000	2015-05-25T18:06:53.740911
{"xgyro": 0, "zmag": 331, "ygyro": 0, "xmag": 148, "zacc": -991, "xacc": -41, "yacc": -110, "zgyro": 0, "mavpackettype": "RAW_IMU", "ymag": -47, "time_usec": 64388062}	0.000000	2015-05-25T18:06:53.757493
{"mavpackettype": "SCALED_PRESSURE", "press_diff": 0.013281249441206455, "time_boot_ms": 64388, "temperature": 4217, "press_abs": 927.109130859375}	0.000000	2015-05-25T18:06:53.757493
{"onboard_control_sensors_present": 2161711, "load": 636, "battery_remaining": -1, "errors_count4": 0, "drop_rate_comm": 0, "errors_count2": 0, "errors_count3": 0, "errors_comm": 0, "current_battery": -1, "errors_count1": 0, "onboard_control_sensors_health": 3210287, "mavpackettype": "SYS_STATUS", "onboard_control_sensors_enabled": 2161711, "voltage_battery": 0}	0.000000	2015-05-25T18:06:53.761580
{"mavpackettype": "MISSION_CURRENT", "seq": 0}	0.000000	2015-05-25T18:06:53.798320
{"wp_dist": 3, "nav_pitch": -24.56999969482422, "target_bearing": -169, "nav_roll": -22.649999618530273, "aspd_error": 0.0, "alt_error": 100.00999450683594, "mavpackettype": "NAV_CONTROLLER_OUTPUT", "xtrack_error": -64.8416748046875, "nav_bearing": -169}	0.000000	2015-05-25T18:06:53.802490
{"servo4_raw": 1382, "servo2_raw": 1344, "servo6_raw": 1500, "time_usec": 64431595, "servo1_raw": 1260, "servo8_raw": 1500, "servo5_raw": 1555, "mavpackettype": "SERVO_OUTPUT_RAW", "servo3_raw": 952, "port": 0, "servo7_raw": 1500}	0.000000	2015-05-25T18:06:53.802490
{"chan4_raw": 900, "chan2_raw": 900, "chan6_raw": 900, "time_boot_ms": 64431, "chan1_raw": 900, "chan5_raw": 900, "chan3_raw": 900, "chan7_raw": 900, "mavpackettype": "RC_CHANNELS_RAW", "chan8_raw": 900, "port": 0, "rssi": 0}	0.000000	2015-05-25T18:06:53.806337
{"throttle": 0, "groundspeed": 0.0, "airspeed": 0.0, "climb": -0.042857810854911804, "mavpackettype": "VFR_HUD", "alt": 746.3900146484375, "heading": 42}	0.000000	2015-05-25T18:06:53.855500
{"pitchspeed": 0.0010645686415955424, "yaw": 0.7465869188308716, "rollspeed": 0.0004444185469765216, "time_boot_ms": 64508, "pitch": -0.037723004817962646, "mavpackettype": "ATTITUDE", "yawspeed": 0.0002630951930768788, "roll": 0.18474286794662476}	0.000000	2015-05-25T18:06:53.879815
{"mavpackettype": "SYSTEM_TIME", "time_boot_ms": 64589, "time_unix_usec": 1432638338447000}	0.000000	2015-05-25T18:06:53.961994
{"vx": 0, "lon": -1109414550, "time_boot_ms": 64548, "hdg": 4277, "relative_alt": 30, "vy": 0, "lat": 322351450, "mavpackettype": "GLOBAL_POSITION_INT", "alt": 746190, "vz": 0}	0.000000	2015-05-25T18:06:53.978315
{"throttle": 0, "groundspeed": 0.0, "airspeed": 0.0, "climb": -0.1969473510980606, "mavpackettype": "VFR_HUD", "alt": 746.5499877929688, "heading": 42}	0.000000	2015-05-25T18:06:53.982053
{"pitchspeed": 0.00026640656869858503, "yaw": 0.7465609312057495, "rollspeed": 0.0007104731630533934, "time_boot_ms": 64630, "pitch": -0.03771021589636803, "mavpackettype": "ATTITUDE", "yawspeed": 0.0010612600017338991, "roll": 0.18474100530147552}	0.000000	2015-05-25T18:06:53.998629
{"throttle": 0, "groundspeed": 0.0, "airspeed": 0.0, "climb": -0.1156146451830864, "mavpackettype": "VFR_HUD", "alt": 746.4500122070312, "heading": 42}	0.000000	2015-05-25T18:06:54.100638
{"custom_mode": 11, "system_status": 5, "base_mode": 217, "autopilot": 3, "mavpackettype": "HEARTBEAT", "type": 1, "mavlink_version": 3}	0.000000	2015-05-25T18:06:54.121279
{"pitchspeed": 3.5007542464882135e-07, "yaw": 0.7465426325798035, "rollspeed": -0.00035374631988815963, "time_boot_ms": 64754, "pitch": -0.03776874765753746, "mavpackettype": "ATTITUDE", "yawspeed": 0.0010612600017338991, "roll": 0.18470294773578644}	0.000000	2015-05-25T18:06:54.125220
{"throttle": 0, "groundspeed": 0.0, "airspeed": 0.0, "climb": 0.00404034648090601, "mavpackettype": "VFR_HUD", "alt": 746.52001953125, "heading": 42}	0.000000	2015-05-25T18:06:54.223273
{"pitchspeed": 0.00041110068559646606, "yaw": 0.7465181350708008, "rollspeed": 0.0005508126923814416, "time_boot_ms": 64869, "pitch": -0.03779708594083786, "mavpackettype": "ATTITUDE", "yawspeed": 0.0003617412585299462, "roll": 0.18467159569263458}	0.000000	2015-05-25T18:06:54.239724
{"xgyro": 0, "zmag": 333, "ygyro": 0, "xmag": 148, "zacc": -987, "xacc": -40, "yacc": -110, "zgyro": 0, "mavpackettype": "RAW_IMU", "ymag": -48, "time_usec": 64908915}	0.000000	2015-05-25T18:06:54.276795
{"mavpackettype": "SCALED_PRESSURE", "press_diff": 0.002890625037252903, "time_boot_ms": 64909, "temperature": 4217, "press_abs": 927.0987548828125}	0.000000	2015-05-25T18:06:54.280900
{"onboard_control_sensors_present": 2161711, "load": 625, "battery_remaining": -1, "errors_count4": 0, "drop_rate_comm": 0, "errors_count2": 0, "errors_count3": 0, "errors_comm": 0, "current_battery": -1, "errors_count1": 0, "onboard_control_sensors_health": 3210287, "mavpackettype": "SYS_STATUS", "onboard_control_sensors_enabled": 2161711, "voltage_battery": 0}	0.000000	2015-05-25T18:06:54.280900
{"mavpackettype": "MISSION_CURRENT", "seq": 0}	0.000000	2015-05-25T18:06:54.284955
{"fix_type": 3, "cog": 29234, "epv": 65535, "lon": -1109414560, "time_usec": 64748000, "eph": 121, "satellites_visible": 7, "lat": 322351450, "mavpackettype": "GPS_RAW_INT", "alt": 746170, "vel": 0}	0.000000	2015-05-25T18:06:54.288771
{"wp_dist": 3, "nav_pitch": -24.56999969482422, "target_bearing": -171, "nav_roll": -22.649999618530273, "aspd_error": 0.0, "alt_error": 100.02999877929688, "mavpackettype": "NAV_CONTROLLER_OUTPUT", "xtrack_error": -64.85765838623047, "nav_bearing": -171}	0.000000	2015-05-25T18:06:54.338049
{"vx": 0, "lon": -1109414560, "time_boot_ms": 64949, "hdg": 4277, "relative_alt": -30, "vy": 0, "lat": 322351450, "mavpackettype": "GLOBAL_POSITION_INT", "alt": 746150, "vz": 0}	0.000000	2015-05-25T18:06:54.342171
{"servo4_raw": 1382, "servo2_raw": 1344, "servo6_raw": 1500, "time_usec": 64972473, "servo1_raw": 1260, "servo8_raw": 1500, "servo5_raw": 1555, "mavpackettype": "SERVO_OUTPUT_RAW", "servo3_raw": 952, "port": 0, "servo7_raw": 1500}	0.000000	2015-05-25T18:06:54.346294
{"chan4_raw": 900, "chan2_raw": 900, "chan6_raw": 900, "time_boot_ms": 64972, "chan1_raw": 900, "chan5_raw": 900, "chan3_raw": 900, "chan7_raw": 900, "mavpackettype": "RC_CHANNELS_RAW", "chan8_raw": 900, "port": 0, "rssi": 0}	0.000000	2015-05-25T18:06:54.346294
{"throttle": 0, "groundspeed": 0.0, "airspeed": 0.0, "climb": 0.10467886179685593, "mavpackettype": "VFR_HUD", "alt": 746.489990234375, "heading": 42}	0.000000	2015-05-25T18:06:54.358320
{"pitchspeed": -0.00012100861931685358, "yaw": 0.7464320063591003, "rollspeed": 0.0008168673375621438, "time_boot_ms": 65008, "pitch": -0.03785746917128563, "mavpackettype": "ATTITUDE", "yawspeed": -0.0007024782244116068, "roll": 0.1846395879983902}	0.000000	2015-05-25T18:06:54.378778
{"throttle": 0, "groundspeed": 0.0, "airspeed": 0.0, "climb": 0.13893312215805054, "mavpackettype": "VFR_HUD", "alt": 746.489990234375, "heading": 42}	0.000000	2015-05-25T18:06:54.476845
{"pitchspeed": 0.00041110068559646606, "yaw": 0.7462857365608215, "rollspeed": 0.00028475807630456984, "time_boot_ms": 65130, "pitch": -0.03787660971283913, "mavpackettype": "ATTITUDE", "yawspeed": -0.00043642360833473504, "roll": 0.18453972041606903}	0.000000	2015-05-25T18:06:54.497509
{"mavpackettype": "SYSTEM_TIME", "time_boot_ms": 65131, "time_unix_usec": 1432638338990000}	0.000000	2015-05-25T18:06:54.505747
{"throttle": 0, "groundspeed": 0.0, "airspeed": 0.0, "climb": 0.12030402570962906, "mavpackettype": "VFR_HUD", "alt": 746.5599975585938, "heading": 42}	0.000000	2015-05-25T18:06:54.599922
{"pitchspeed": 0.00014504788850899786, "yaw": 0.7462538480758667, "rollspeed": 0.0010829229140654206, "time_boot_ms": 65254, "pitch": -0.03791003301739693, "mavpackettype": "ATTITUDE", "yawspeed": 9.5686613349244e-05, "roll": 0.18448513746261597}	0.000000	2015-05-25T18:06:54.624023
{"vx": 0, "lon": -1109414560, "time_boot_ms": 65149, "hdg": 4275, "relative_alt": 40, "vy": 0, "lat": 322351450, "mavpackettype": "GLOBAL_POSITION_INT", "alt": 746120, "vz": 0}	0.000000	2015-05-25T18:06:54.677419
{"throttle": 0, "groundspeed": 0.0, "airspeed": 0.0, "climb": 0.1844821274280548, "mavpackettype": "VFR_HUD", "alt": 746.5499877929688, "heading": 42}	0.000000	2015-05-25T18:06:54.722230
{"pitchspeed": 0.00014504788850899786, "yaw": 0.7461616396903992, "rollspeed": 0.00028475807630456984, "time_boot_ms": 65372, "pitch": -0.037943560630083084, "mavpackettype": "ATTITUDE", "yawspeed": 0.0006277959328144789, "roll": 0.18445630371570587}	0.000000	2015-05-25T18:06:54.738778
{"xgyro": 0, "zmag": 333, "ygyro": 1, "xmag": 148, "zacc": -987, "xacc": -41, "yacc": -111, "zgyro": 0, "mavpackettype": "RAW_IMU", "ymag": -48, "time_usec": 65431467}	0.000000	2015-05-25T18:06:54.800138
{"mavpackettype": "SCALED_PRESSURE", "press_diff": 0.0016406249487772584, "time_boot_ms": 65431, "temperature": 4218, "press_abs": 927.0974731445312}	0.000000	2015-05-25T18:06:54.800138
{"mavpackettype": "MISSION_CURRENT", "seq": 0}	0.000000	2015-05-25T18:06:54.804518
{"fix_type": 3, "cog": 29234, "epv": 65535, "lon": -1109414560, "time_usec": 65350000, "eph": 121, "satellites_visible": 7, "lat": 322351450, "mavpackettype": "GPS_RAW_INT", "alt": 746100, "vel": 0}	0.000000	2015-05-25T18:06:54.808288
{"wp_dist": 3, "nav_pitch": -24.56999969482422, "target_bearing": -171, "nav_roll": -22.649999618530273, "aspd_error": 0.0, "alt_error": 100.0199966430664, "mavpackettype": "NAV_CONTROLLER_OUTPUT", "xtrack_error": -64.85765838623047, "nav_bearing": -171}	0.000000	2015-05-25T18:06:54.857423
{"throttle": 0, "groundspeed": 0.0, "airspeed": 0.0, "climb": -0.02655499055981636, "mavpackettype": "VFR_HUD", "alt": 746.5, "heading": 42}	0.000000	2015-05-25T18:06:54.861219
{"servo4_raw": 1382, "servo2_raw": 1344, "servo6_raw": 1500, "time_usec": 65510117, "servo1_raw": 1260, "servo8_raw": 1500, "servo5_raw": 1555, "mavpackettype": "SERVO_OUTPUT_RAW", "servo3_raw": 952, "port": 0, "servo7_raw": 1500}	0.000000	2015-05-25T18:06:54.877908
{"chan4_raw": 900, "chan2_raw": 900, "chan6_raw": 900, "time_boot_ms": 65510, "chan1_raw": 900, "chan5_raw": 900, "chan3_raw": 900, "chan7_raw": 900, "mavpackettype": "RC_CHANNELS_RAW", "chan8_raw": 900, "port": 0, "rssi": 0}	0.000000	2015-05-25T18:06:54.877908
{"pitchspeed": 0.00041110068559646606, "yaw": 0.7460046410560608, "rollspeed": 1.8702965462580323e-05, "time_boot_ms": 65510, "pitch": -0.03793001547455788, "mavpackettype": "ATTITUDE", "yawspeed": 0.0006277959328144789, "roll": 0.1844102293252945}	0.000000	2015-05-25T18:06:54.881840
{"throttle": 0, "groundspeed": 0.0, "airspeed": 0.0, "climb": -0.3216189444065094, "mavpackettype": "VFR_HUD", "alt": 746.3699951171875, "heading": 42}	0.000000	2015-05-25T18:06:54.975884
{"pitchspeed": -0.00012100861931685358, "yaw": 0.745961606502533, "rollspeed": 0.0005508126923814416, "time_boot_ms": 65631, "pitch": -0.03796809911727905, "mavpackettype": "ATTITUDE", "yawspeed": 0.0006277959328144789, "roll": 0.18439818918704987}	0.000000	2015-05-25T18:06:55.000308
{"vx": 0, "lon": -1109414560, "time_boot_ms": 65550, "hdg": 4273, "relative_alt": -10, "vy": 0, "lat": 322351450, "mavpackettype": "GLOBAL_POSITION_INT", "alt": 746100, "vz": 0}	0.000000	2015-05-25T18:06:55.037290
{"mavpackettype": "SYSTEM_TIME", "time_boot_ms": 65672, "time_unix_usec": 1432638339530000}	0.000000	2015-05-25T18:06:55.045495
{"throttle": 0, "groundspeed": 0.0, "airspeed": 0.0, "climb": -0.3423953950405121, "mavpackettype": "VFR_HUD", "alt": 746.5900268554688, "heading": 42}	0.000000	2015-05-25T18:06:55.102395
{"custom_mode": 11, "system_status": 5, "base_mode": 217, "autopilot": 3, "mavpackettype": "HEARTBEAT", "type": 1, "mavlink_version": 3}	0.000000	2015-05-25T18:06:55.118915
{"pitchspeed": 0.0006771571934223175, "yaw": 0.745891809463501, "rollspeed": 0.0005508126923814416, "time_boot_ms": 65755, "pitch": -0.03795826807618141, "mavpackettype": "ATTITUDE", "yawspeed": 0.0006277959328144789, "roll": 0.18433289229869843}	0.000000	2015-05-25T18:06:55.123178
{"throttle": 0, "groundspeed": 0.0, "airspeed": 0.0, "climb": 0.32267269492149353, "mavpackettype": "VFR_HUD", "alt": 746.5, "heading": 42}	0.000000	2015-05-25T18:06:55.221184
{"pitchspeed": -0.00012100861931685358, "yaw": 0.7459084391593933, "rollspeed": 0.00028475807630456984, "time_boot_ms": 65871, "pitch": -0.037994783371686935, "mavpackettype": "ATTITUDE", "yawspeed": -0.00017036896315403283, "roll": 0.1843140423297882}	0.000000	2015-05-25T18:06:55.237648
{"xgyro": 0, "zmag": 331, "ygyro": 0, "xmag": 148, "zacc": -988, "xacc": -39, "yacc": -113, "zgyro": 0, "mavpackettype": "RAW_IMU", "ymag": -48, "time_usec": 65955879}	0.000000	2015-05-25T18:06:55.323495
{"mavpackettype": "SCALED_PRESSURE", "press_diff": 0.005234374664723873, "time_boot_ms": 65955, "temperature": 4218, "press_abs": 927.10107421875}	0.000000	2015-05-25T18:06:55.323495
{"mavpackettype": "MISSION_CURRENT", "seq": 0}	0.000000	2015-05-25T18:06:55.327821
{"fix_type": 3, "cog": 29234, "epv": 65535, "lon": -1109414560, "time_usec": 65950000, "eph": 121, "satellites_visible": 7, "lat": 322351430, "mavpackettype": "GPS_RAW_INT", "alt": 746120, "vel": 0}	0.000000	2015-05-25T18:06:55.331639
{"wp_dist": 3, "nav_pitch": -24.56999969482422, "target_bearing": -171, "nav_roll": -22.649999618530273, "aspd_error": 0.0, "alt_error": 100.0199966430664, "mavpackettype": "NAV_CONTROLLER_OUTPUT", "xtrack_error": -64.85765838623047, "nav_bearing": -171}	0.000000	2015-05-25T18:06:55.356201
{"throttle": 0, "groundspeed": 0.0, "airspeed": 0.0, "climb": 0.1354106068611145, "mavpackettype": "VFR_HUD", "alt": 746.5, "heading": 42}	0.000000	2015-05-25T18:06:55.360163
{"pitchspeed": 0.00014504788850899786, "yaw": 0.7457525730133057, "rollspeed": -0.0002473521453794092, "time_boot_ms": 66010, "pitch": -0.03801598772406578, "mavpackettype": "ATTITUDE", "yawspeed": -0.00043642360833473504, "roll": 0.1842348873615265}	0.000000	2015-05-25T18:06:55.376654
{"vx": 0, "lon": -1109414560, "time_boot_ms": 65950, "hdg": 4272, "relative_alt": -49, "vy": 0, "lat": 322351430, "mavpackettype": "GLOBAL_POSITION_INT", "alt": 746120, "vz": 0}	0.000000	2015-05-25T18:06:55.400907
{"servo4_raw": 1382, "servo2_raw": 1344, "servo6_raw": 1500, "time_usec": 66055530, "servo1_raw": 1260, "servo8_raw": 1500, "servo5_raw": 1555, "mavpackettype": "SERVO_OUTPUT_RAW", "servo3_raw": 952, "port": 0, "servo7_raw": 1500}	0.000000	2015-05-25T18:06:55.421729
{"chan4_raw": 900, "chan2_raw": 900, "chan6_raw": 900, "time_boot_ms": 66055, "chan1_raw": 900, "chan5_raw": 900, "chan3_raw": 900, "chan7_raw": 900, "mavpackettype": "RC_CHANNELS_RAW", "chan8_raw": 900, "port": 0, "rssi": 0}	0.000000	2015-05-25T18:06:55.425552
{"throttle": 0, "groundspeed": 0.0, "airspeed": 0.0, "climb": -0.13308210670948029, "mavpackettype": "VFR_HUD", "alt": 746.469970703125, "heading": 42}	0.000000	2015-05-25T18:06:55.478591
{"pitchspeed": 0.00014504788850899786, "yaw": 0.7455182075500488, "rollspeed": 1.8702965462580323e-05, "time_boot_ms": 66132, "pitch": -0.03806031122803688, "mavpackettype": "ATTITUDE", "yawspeed": 0.0006277959328144789, "roll": 0.18417486548423767}	0.000000	2015-05-25T18:06:55.499226
{"mavpackettype": "SYSTEM_TIME", "time_boot_ms": 66212, "time_unix_usec": 1432638340070000}	0.000000	2015-05-25T18:06:55.581201
{"throttle": 0, "groundspeed": 0.0, "airspeed": 0.0, "climb": -0.11476216465234756, "mavpackettype": "VFR_HUD", "alt": 746.4099731445312, "heading": 42}	0.000000	2015-05-25T18:06:55.597433
{"pitchspeed": 0.00014504788850899786, "yaw": 0.7453070282936096, "rollspeed": 1.8702965462580323e-05, "time_boot_ms": 66255, "pitch": -0.03804647922515869, "mavpackettype": "ATTITUDE", "yawspeed": -0.00043642360833473504, "roll": 0.18413546681404114}	0.000000	2015-05-25T18:06:55.621852
{"throttle": 0, "groundspeed": 0.0, "airspeed": 0.0, "climb": -0.11325900256633759, "mavpackettype": "VFR_HUD", "alt": 746.5, "heading": 42}	0.000000	2015-05-25T18:06:55.724014
{"vx": 0, "lon": -1109414580, "time_boot_ms": 66351, "hdg": 4268, "relative_alt": -20, "vy": 0, "lat": 322351430, "mavpackettype": "GLOBAL_POSITION_INT", "alt": 746120, "vz": 0}	0.000000	2015-05-25T18:06:55.740683
{"pitchspeed": 0.00014504788850899786, "yaw": 0.7450532913208008, "rollspeed": 0.00028475807630456984, "time_boot_ms": 66373, "pitch": -0.038059160113334656, "mavpackettype": "ATTITUDE", "yawspeed": -0.00017036896315403283, "roll": 0.18411439657211304}	0.000000	2015-05-25T18:06:55.740683
{"xgyro": 0, "zmag": 333, "ygyro": 0, "xmag": 148, "zacc": -988, "xacc": -41, "yacc": -112, "zgyro": 0, "mavpackettype": "RAW_IMU", "ymag": -48, "time_usec": 66471996}	0.000000	2015-05-25T18:06:55.838771
{"mavpackettype": "SCALED_PRESSURE", "press_diff": 0.004218749701976776, "time_boot_ms": 66471, "temperature": 4219, "press_abs": 927.1000366210938}	0.000000	2015-05-25T18:06:55.838771
{"mavpackettype": "MISSION_CURRENT", "seq": 0}	0.000000	2015-05-25T18:06:55.843060
{"fix_type": 3, "cog": 29234, "epv": 65535, "lon": -1109414580, "time_usec": 66351000, "eph": 121, "satellites_visible": 7, "lat": 322351430, "mavpackettype": "GPS_RAW_INT", "alt": 746120, "vel": 0}	0.000000	2015-05-25T18:06:55.859307
{"wp_dist": 2, "nav_pitch": -24.56999969482422, "target_bearing": -174, "nav_roll": -22.729999542236328, "aspd_error": 0.0, "alt_error": 100.0999984741211, "mavpackettype": "NAV_CONTROLLER_OUTPUT", "xtrack_error": -65.10264587402344, "nav_bearing": -174}	0.000000	2015-05-25T18:06:55.863164
{"throttle": 0, "groundspeed": 0.0, "airspeed": 0.0, "climb": -0.1674235463142395, "mavpackettype": "VFR_HUD", "alt": 746.4199829101562, "heading": 42}	0.000000	2015-05-25T18:06:55.863164
{"pitchspeed": 0.00014504788850899786, "yaw": 0.7451025247573853, "rollspeed": 0.00028475807630456984, "time_boot_ms": 66511, "pitch": -0.03810644894838333, "mavpackettype": "ATTITUDE", "yawspeed": 0.0003617412585299462, "roll": 0.18408836424350739}	0.000000	2015-05-25T18:06:55.879386
{"servo4_raw": 1381, "servo2_raw": 1344, "servo6_raw": 1500, "time_usec": 66591421, "servo1_raw": 1259, "servo8_raw": 1500, "servo5_raw": 1555, "mavpackettype": "SERVO_OUTPUT_RAW", "servo3_raw": 952, "port": 0, "servo7_raw": 1500}	0.000000	2015-05-25T18:06:55.957372
{"chan4_raw": 900, "chan2_raw": 900, "chan6_raw": 900, "time_boot_ms": 66591, "chan1_raw": 900, "chan5_raw": 900, "chan3_raw": 900, "chan7_raw": 900, "mavpackettype": "RC_CHANNELS_RAW", "chan8_raw": 900, "port": 0, "rssi": 0}	0.000000	2015-05-25T18:06:55.957372
{"throttle": 0, "groundspeed": 0.0, "airspeed": 0.0, "climb": -0.10667909681797028, "mavpackettype": "VFR_HUD", "alt": 746.47998046875, "heading": 42}	0.000000	2015-05-25T18:06:55.977627
{"pitchspeed": 0.00014504788850899786, "yaw": 0.7450184226036072, "rollspeed": 0.0005508126923814416, "time_boot_ms": 66633, "pitch": -0.03812527284026146, "mavpackettype": "ATTITUDE", "yawspeed": -0.00017036896315403283, "roll": 0.1840345859527588}	0.000000	2015-05-25T18:06:55.998135
{"vx": 0, "lon": -1109414580, "time_boot_ms": 66551, "hdg": 4267, "relative_alt": -99, "vy": 0, "lat": 322351430, "mavpackettype": "GLOBAL_POSITION_INT", "alt": 746120, "vz": 0}	0.000000	2015-05-25T18:06:56.100395
{"throttle": 0, "groundspeed": 0.0, "airspeed": 0.0, "climb": -0.03946404904127121, "mavpackettype": "VFR_HUD", "alt": 746.4199829101562, "heading": 42}	0.000000	2015-05-25T18:06:56.100395
{"custom_mode": 11, "system_status": 5, "base_mode": 217, "autopilot": 3, "mavpackettype": "HEARTBEAT", "type": 1, "mavlink_version": 3}	0.000000	2015-05-25T18:06:56.120974
